City_ID,City,Cloudiness,Country,Date,Humidity,Lat,Lng,Max Temp,Wind Speed
0,santa isabel do rio negro,92,BR,1525167739,100,-0.41,-65.02,71.16,3.27
1,arraial do cabo,0,BR,1525165200,88,-22.97,-42.02,64.4,4.72
2,new norfolk,0,AU,1525165200,39,-42.78,147.06,62.6,10.29
3,barcelona,75,ES,1525165200,81,41.38,2.18,50.0,3.36
4,punta arenas,40,CL,1525165200,100,-53.16,-70.91,30.2,8.05
5,tessalit,0,ML,1525167640,12,20.2,1.01,86.64,6.4
6,albany,90,US,1525164840,87,42.65,-73.75,42.8,2.37
7,port alfred,0,ZA,1525167599,76,-33.59,26.89,72.6,11.65
8,atuona,76,PF,1525167562,99,-9.8,-139.03,81.24,18.25
9,tarakan,20,ID,1525167742,86,3.3,117.63,85.74,4.5
10,mataura,56,NZ,1525167547,89,-46.19,168.86,42.54,6.51
11,yerbogachen,24,RU,1525167743,35,61.28,108.01,58.65,11.99
12,ushuaia,0,AR,1525165200,100,-54.81,-68.31,39.2,8.05
13,ubajara,64,BR,1525167743,94,-3.85,-40.92,72.24,3.71
14,boende,20,CD,1525167685,81,-0.28,20.88,81.96,3.15
15,karratha,0,AU,1525167603,30,-20.74,116.85,88.8,10.76
16,souillac,0,FR,1525165200,71,45.6,-0.6,53.6,5.82
17,balabac,0,PH,1525167744,93,7.99,117.06,88.35,3.94
18,rikitea,8,PF,1525167565,100,-23.12,-134.97,77.91,2.37
19,kalmunai,20,LK,1525167745,100,7.42,81.82,81.87,4.61
20,jalu,0,LY,1525167565,52,29.03,21.55,77.19,8.19
21,chuy,56,UY,1525167571,95,-33.69,-53.46,58.56,6.29
22,ilulissat,56,GL,1525164600,57,69.22,-51.1,21.2,17.22
23,geraldton,90,CA,1525165200,81,49.72,-86.95,42.8,5.61
24,cap-chat,64,CA,1525167747,98,49.1,-66.68,35.16,5.5
25,pangnirtung,8,CA,1525167705,71,66.15,-65.72,-6.42,6.85
26,bafut,20,CM,1525167748,95,6.09,10.11,72.42,3.04
27,pisco,0,PE,1525165200,82,-13.71,-76.2,66.2,9.17
28,hithadhoo,68,MV,1525167555,99,-0.6,73.08,85.11,16.8
29,lithgow,20,AU,1525165200,62,-33.48,150.16,59.0,2.15
30,severo-kurilsk,76,RU,1525167593,97,50.68,156.12,32.91,7.74
31,batagay-alyta,56,RU,1525167750,80,67.8,130.41,33.0,9.64
32,bredasdorp,36,ZA,1525167608,75,-34.53,20.04,67.11,4.94
33,butaritari,56,KI,1525167599,100,3.07,172.79,84.03,9.42
34,lanigan,0,CA,1525167751,74,51.85,-105.03,30.93,7.74
35,tuktoyaktuk,80,CA,1525165200,91,69.44,-133.03,32.0,27.51
36,haines junction,12,CA,1525167682,79,60.75,-137.51,20.67,2.71
37,vaini,0,IN,1525167555,37,15.34,74.49,96.18,7.52
38,baykit,92,RU,1525167752,99,61.68,96.39,40.56,5.95
39,naze,75,NG,1525165200,79,5.43,7.07,86.0,3.36
40,pervomayskoye,100,RU,1525167753,68,57.07,86.23,55.86,16.13
41,puerto ayora,88,EC,1525167574,100,-0.74,-90.35,75.12,4.72
42,riyadh,0,SA,1525165200,15,24.63,46.72,89.6,10.29
43,busselton,64,AU,1525167564,100,-33.64,115.35,63.51,14.67
44,buchmany,0,UA,1525167755,54,51.07,28.04,77.64,7.52
45,umm kaddadah,0,SD,1525167755,9,13.6,26.69,102.93,6.96
46,ahipara,64,NZ,1525167697,97,-35.17,173.16,62.34,16.02
47,akcaabat,40,TR,1525164600,87,41.02,39.57,60.8,5.82
48,bluff,92,AU,1525167598,48,-23.58,149.07,76.2,11.77
49,nikolskoye,90,RU,1525165200,81,59.7,30.79,46.4,15.66
50,talnakh,48,RU,1525167646,89,69.49,88.39,9.33,10.65
51,saldanha,20,PT,1525167608,87,41.42,-6.55,46.68,4.16
52,nurota,0,UZ,1525165200,28,40.56,65.69,71.6,23.04
53,thompson,5,CA,1525165200,74,55.74,-97.86,28.4,3.36
54,lasa,20,CY,1525165200,69,34.92,32.53,80.6,6.93
55,russell,0,AR,1525165200,87,-33.01,-68.8,46.4,0.81
56,tuatapere,68,NZ,1525167760,100,-46.13,167.69,48.3,10.2
57,cayenne,90,GF,1525167000,100,4.94,-52.33,75.2,3.94
58,daru,20,SL,1525167761,80,7.99,-10.85,80.16,4.38
59,cape town,0,ZA,1525165200,43,-33.93,18.42,69.8,4.7
60,bresso,20,IT,1525164600,55,45.54,9.19,62.6,6.93
61,xuddur,64,SO,1525167762,68,4.12,43.89,82.5,14.45
62,bethel,90,US,1525164540,85,60.79,-161.76,33.8,11.41
63,dikson,36,RU,1525167623,100,73.51,80.55,11.58,9.08
64,codrington,92,AU,1525167602,71,-28.95,153.24,63.87,4.83
65,hermanus,56,ZA,1525167489,25,-34.42,19.24,73.23,3.15
66,jamestown,68,AU,1525167544,36,-33.21,138.6,57.12,2.37
67,hilo,90,US,1525164960,94,19.71,-155.08,71.6,4.7
68,ribeira grande,40,PT,1525165200,77,38.52,-28.7,60.8,2.24
69,upernavik,8,GL,1525167678,100,72.79,-56.15,5.82,6.29
70,jacareacanga,64,BR,1525167765,99,-6.22,-57.76,71.16,2.59
71,lebu,48,ET,1525167591,97,8.96,38.73,65.67,3.94
72,mayor pablo lagerenza,12,PY,1525167766,64,-19.93,-60.77,77.91,8.08
73,kondinskoye,0,RU,1525167766,61,59.65,67.41,42.0,3.83
74,nelspruit,80,ZA,1525165200,60,-25.48,30.98,69.8,5.82
75,cherskiy,64,RU,1525167689,77,68.75,161.3,18.06,2.59
76,vila velha,40,BR,1525165200,94,-3.71,-38.6,77.0,8.05
77,arlit,0,NE,1525167768,15,18.74,7.39,101.67,6.96
78,yellowknife,20,CA,1525165200,68,62.45,-114.38,24.8,6.93
79,erdenet,0,MN,1525167768,35,49.03,104.04,59.46,4.5
80,san quintin,20,PH,1525165200,74,17.54,120.52,87.8,4.7
81,lavrentiya,88,RU,1525167699,100,65.58,-170.99,22.56,22.06
82,kiunga,56,PG,1525167769,84,-6.12,141.3,79.44,2.26
83,alta floresta,8,BR,1525167770,98,-9.87,-56.08,71.97,1.92
84,kruisfontein,0,ZA,1525167651,70,-34.0,24.73,72.51,6.62
85,berlevag,0,NO,1525164600,64,70.86,29.09,37.4,10.29
86,edmond,90,US,1525166100,77,35.66,-97.47,69.8,17.22
87,norman wells,75,CA,1525165200,60,65.28,-126.83,39.2,5.82
88,lamesa,90,US,1525166100,77,32.74,-101.95,66.2,13.87
89,narsaq,75,GL,1525164600,74,60.91,-46.05,30.2,11.41
90,edson,75,CA,1525165200,55,53.59,-116.44,41.0,9.17
91,buritis,24,BR,1525167848,78,-15.62,-46.42,63.78,3.6
92,severomorsk,20,RU,1525165200,41,69.07,33.42,39.2,6.71
93,aksu,40,KZ,1525165200,40,52.04,76.93,51.8,22.37
94,reconquista,56,AR,1525167849,95,-29.14,-59.64,68.37,10.98
95,shimoda,0,JP,1525167849,88,34.7,138.93,69.18,5.84
96,saint-philippe,90,CA,1525166940,100,45.36,-73.48,44.6,4.05
97,kapaa,1,US,1525164960,93,22.08,-159.32,66.2,5.82
98,coxim,0,BR,1525167850,81,-18.5,-54.75,67.83,3.38
99,veraval,40,FR,1525165200,81,49.65,0.71,48.2,6.93
100,roald,0,NO,1525164600,81,62.58,6.12,53.6,14.99
101,bilma,0,NE,1525167852,14,18.69,12.92,104.1,3.71
102,torbay,90,CA,1525165980,93,47.66,-52.73,35.6,5.82
103,sao joao do piaui,36,BR,1525167853,74,-8.36,-42.25,75.48,9.19
104,derzhavinsk,68,KZ,1525167567,55,51.1,66.31,55.5,14.79
105,hobart,0,AU,1525163400,34,-42.88,147.33,64.4,4.7
106,lansdowne,32,IN,1525167854,65,29.84,78.68,76.11,0.92
107,mahebourg,75,MU,1525165200,65,-20.41,57.7,82.4,13.87
108,deputatskiy,0,RU,1525167628,81,69.3,139.9,28.41,9.31
109,tripoli,20,GR,1525164600,39,37.51,22.37,78.8,2.37
110,yafran,0,LY,1525167855,36,32.06,12.53,75.21,17.47
111,noumea,75,NC,1525167000,88,-22.28,166.46,66.2,2.24
112,calvinia,0,ZA,1525167857,37,-31.47,19.78,69.36,4.72
113,rawson,44,AR,1525167857,66,-43.3,-65.11,44.34,12.66
114,stauceni,0,MD,1525165200,38,47.09,28.87,77.0,8.05
115,moose factory,75,CA,1525165200,97,51.26,-80.61,35.6,5.82
116,tazovskiy,8,RU,1525167859,95,67.47,78.7,11.49,10.54
117,dmitrovsk-orlovskiy,0,RU,1525167859,51,52.51,35.15,75.03,15.46
118,adrar,76,DZ,1525165200,14,27.87,-0.29,75.2,11.41
119,morondava,0,MG,1525167860,62,-20.3,44.28,88.62,5.5
120,khatanga,88,RU,1525167576,97,71.98,102.47,18.33,12.33
121,okhotsk,76,RU,1525167592,78,59.36,143.24,34.98,3.49
122,anshun,68,CN,1525167861,88,26.25,105.93,69.9,4.61
123,nushki,44,PK,1525167862,22,29.55,66.02,93.48,5.28
124,kamaishi,0,JP,1525165200,53,39.28,141.86,71.6,4.7
125,sao felix do xingu,64,BR,1525167938,100,-6.64,-51.99,72.78,2.15
126,ofaqim,32,IL,1525167938,69,31.31,34.62,73.68,12.1
127,castro,92,CL,1525167567,100,-42.48,-73.76,47.31,4.16
128,tolaga bay,92,NZ,1525167939,94,-38.37,178.3,58.56,13.78
129,tiksi,88,RU,1525167638,93,71.64,128.87,37.68,19.71
130,vrangel,76,RU,1525167750,95,42.73,133.08,44.97,2.37
131,san cristobal,90,EC,1525165200,93,-0.39,-78.55,51.8,5.82
132,tilichiki,92,RU,1525167563,90,60.47,166.1,30.39,1.92
133,miramar,0,CR,1525165200,64,10.09,-84.73,71.6,20.8
134,carnarvon,0,ZA,1525167609,42,-30.97,22.13,67.29,10.09
135,jiazi,40,CN,1525165200,74,19.61,110.49,87.8,4.47
136,saskylakh,68,RU,1525167645,95,71.97,114.09,39.21,11.65
137,piotrkow trybunalski,0,PL,1525167000,56,51.41,19.7,69.8,5.82
138,anloga,40,GH,1525165200,70,5.79,0.9,87.8,8.05
139,pucara,75,BO,1525165200,72,-21.7,-64.2,66.2,2.04
140,karasburg,20,NA,1525167944,35,-28.01,18.75,76.74,8.75
141,abu samrah,0,SY,1525167945,100,35.3,37.18,71.25,5.73
142,nishihara,1,JP,1525165200,40,35.74,139.53,75.2,14.99
143,grand gaube,75,MU,1525165200,65,-20.01,57.66,82.4,13.87
144,port hedland,0,AU,1525165200,62,-20.31,118.58,86.0,11.41
145,santa fe,80,AR,1525167946,97,-31.62,-60.7,61.26,15.9
146,la ronge,40,CA,1525165200,55,55.1,-105.3,33.8,5.82
147,beaverlodge,75,CA,1525165200,80,55.21,-119.43,39.2,11.41
148,beringovskiy,76,RU,1525167580,91,63.05,179.32,29.58,2.71
149,sao filipe,0,CV,1525167570,95,14.9,-24.5,71.43,21.05
150,copiapo,12,CL,1525165200,93,-27.37,-70.33,51.8,5.82
151,hazro,75,TR,1525164600,56,38.25,40.78,73.4,2.24
152,prince rupert,75,CA,1525166040,93,54.32,-130.32,42.8,3.36
153,yarmouth,40,GB,1525166400,71,50.71,-1.5,51.8,12.75
154,alofi,24,NU,1525165200,94,-19.06,-169.92,77.0,4.7
155,ancud,92,CL,1525167562,98,-41.87,-73.83,50.73,5.5
156,yartsevo,24,RU,1525167951,52,55.07,32.69,73.23,15.79
157,comodoro rivadavia,0,AR,1525165200,46,-45.87,-67.48,50.0,5.82
158,byron bay,75,AU,1525165200,64,-28.65,153.62,68.0,8.05
159,cockburn town,88,TC,1525167698,100,21.46,-71.14,78.0,17.47
160,sola,75,NO,1525166400,75,58.89,5.65,46.4,4.7
161,cidreira,48,BR,1525167953,96,-30.17,-50.22,68.1,4.16
162,hervey bay,68,AU,1525167953,91,-25.3,152.85,74.13,17.13
163,avarua,20,CK,1525165200,88,-21.21,-159.78,75.2,5.82
164,banjar,56,ID,1525167954,68,-7.37,108.54,83.04,3.94
165,iqaluit,75,CA,1525165200,60,63.75,-68.52,8.6,8.05
166,airai,92,TL,1525167545,94,-8.93,125.41,70.53,2.15
167,mareeba,75,AU,1525165200,94,-16.99,145.42,69.8,8.05
168,suntar,0,RU,1525167955,41,62.16,117.65,56.76,10.2
169,pierre,90,US,1525164780,81,44.37,-100.35,44.6,9.17
170,rey bouba,48,CM,1525167956,88,8.67,14.18,80.43,4.16
171,dingle,44,PH,1525167688,64,11.0,122.67,86.37,11.77
172,nanortalik,68,GL,1525167957,92,60.14,-45.24,30.48,22.84
173,qaanaaq,12,GL,1525167559,69,77.48,-69.36,-2.19,8.19
174,altay,80,CN,1525167957,45,47.83,88.13,55.59,3.04
175,luang prabang,40,LA,1525165200,44,19.89,102.14,95.0,4.7
176,mporokoso,0,ZM,1525167958,47,-9.37,30.12,80.52,11.21
177,meadow lake,20,CA,1525167775,34,54.13,-108.44,41.73,8.75
178,mogok,0,MM,1525167959,59,22.92,96.51,81.87,2.15
179,marivan,12,IR,1525167959,57,35.52,46.18,66.48,1.7
180,chillicothe,1,US,1525166100,65,39.33,-82.98,44.6,4.61
181,clyde river,90,CA,1525166940,92,70.47,-68.59,14.0,17.22
182,fort nelson,40,CA,1525165200,52,58.81,-122.69,42.8,6.93
183,kahului,40,US,1525164960,93,20.89,-156.47,66.2,4.16
184,nuevo imperial,0,PE,1525167961,91,-13.08,-76.32,60.36,0.36
185,idil,75,TR,1525165200,31,37.34,41.89,78.8,6.93
186,sioux lookout,90,CA,1525165200,93,50.1,-91.92,39.2,3.36
187,manono,44,CD,1525167963,52,-7.3,27.4,87.27,7.4
188,nakambala,0,ZM,1525167963,52,-15.83,27.78,77.1,13.78
189,vuktyl,64,RU,1525167964,58,63.86,57.31,36.33,6.29
190,aluksne,20,LV,1525167964,85,57.42,27.05,68.55,13.22
191,mutata,92,CO,1525167964,93,7.24,-76.44,64.41,1.7
192,la asuncion,76,EC,1525167965,94,-1.64,-78.74,43.8,1.25
193,nuevo progreso,75,US,1525166100,83,26.05,-97.95,78.8,9.17
194,ponta do sol,56,BR,1525167639,79,-20.63,-46.0,56.76,1.92
195,pundaguitan,20,PH,1525167966,96,6.37,126.17,84.93,8.08
196,ilhabela,12,BR,1525167966,100,-23.78,-45.36,75.48,10.2
197,oktyabrskoye,64,RU,1525167967,89,56.73,85.44,48.84,9.08
198,coos bay,40,US,1525166100,87,43.37,-124.22,46.4,3.36
199,siderno,0,IT,1525164900,60,38.28,16.3,71.6,5.82
200,constitucion,0,MX,1525167659,74,23.99,-104.67,45.69,3.15
201,esperance,20,TT,1525165200,88,10.24,-61.45,75.2,6.62
202,georgetown,20,GY,1525165200,100,6.8,-58.16,73.4,4.7
203,greenwood,8,US,1525166100,68,32.03,-101.9,71.6,17.22
204,leningradskiy,20,RU,1525167970,71,69.38,178.42,13.38,15.46
205,tignere,44,CM,1525167970,93,7.37,12.65,76.2,3.6
206,shizunai,44,JP,1525167971,58,42.33,142.37,58.11,8.63
207,wilmington,1,US,1525166100,52,39.75,-75.55,46.4,5.82
208,tura,76,IN,1525167650,90,25.52,90.21,74.67,6.17
209,labuhan,80,ID,1525167972,91,-2.54,115.51,78.36,2.26
210,kavieng,68,PG,1525167720,100,-2.57,150.8,80.25,6.4
211,nueva loja,100,EC,1525167973,96,0.08,-76.88,69.81,2.04
212,port elizabeth,1,US,1525164960,93,39.31,-74.98,44.6,2.71
213,grindavik,75,IS,1525165200,100,63.84,-22.43,37.4,12.75
214,mattru,0,SL,1525167974,91,7.62,-11.83,80.07,3.27
215,taree,0,AU,1525165200,87,-31.91,152.46,60.8,1.92
216,amazar,56,RU,1525167974,30,53.86,120.88,47.58,4.16
217,kargasok,68,RU,1525167975,78,59.06,80.87,37.59,8.41
218,mahon,75,IE,1525167000,93,51.89,-8.4,46.4,19.46
219,vao,92,EE,1525167976,99,59.1,26.19,50.37,9.86
220,sitka,0,US,1525167604,59,37.17,-99.65,71.79,24.07
221,cabo san lucas,0,MX,1525167584,100,22.89,-109.91,68.46,15.9
222,homer,90,US,1525164780,75,59.64,-151.54,42.8,3.36
223,beaune,40,FR,1525167000,61,47.02,4.84,50.0,5.82
224,mezen,32,RU,1525167978,56,65.85,44.24,38.58,6.73
225,alice springs,40,AU,1525165200,30,-23.7,133.88,78.8,2.93
226,lagoa,40,PT,1525165200,71,37.14,-8.45,57.2,9.17
227,barrow,8,AR,1525167548,84,-38.31,-60.23,38.04,2.71
228,itoman,40,JP,1525166160,78,26.12,127.67,77.0,10.29
229,lompoc,90,US,1525165080,81,34.64,-120.46,51.8,8.05
230,hualmay,36,PE,1525167672,99,-11.1,-77.61,63.33,3.38
231,provideniya,0,RU,1525167586,100,64.42,-173.23,24.9,13.22
232,casablanca,40,MA,1525165200,48,33.6,-7.62,62.6,12.75
233,mar del plata,0,AR,1525167577,88,-46.43,-67.52,38.94,6.73
234,akoupe,88,CI,1525167981,95,6.39,-3.9,79.53,4.72
235,longkou,92,CN,1525167982,93,37.64,120.47,55.77,10.98
236,corinto,0,BR,1525167983,88,-18.36,-44.46,57.3,2.93
237,huamuxtitlan,64,MX,1525167983,94,17.82,-98.57,61.71,1.03
238,coquimbo,0,CL,1525165200,93,-29.95,-71.34,50.0,4.7
239,abbeville,75,FR,1525167000,81,50.11,1.83,51.8,11.41
240,bahia de caraquez,75,EC,1525165200,94,-0.6,-80.42,73.4,2.24
241,mae sai,75,MM,1525165200,62,20.44,99.89,87.8,4.7
242,chodavaram,8,IN,1525167986,44,17.44,81.78,97.53,6.73
243,muzhi,68,RU,1525167986,96,65.4,64.7,33.36,15.68
244,quelimane,40,MZ,1525165200,65,-17.88,36.89,82.4,4.7
245,whitianga,12,NZ,1525167987,99,-36.83,175.7,65.85,6.06
246,kavaratti,12,IN,1525167630,100,10.57,72.64,85.2,10.42
247,manyana,0,AU,1525165200,87,-35.26,150.51,53.6,4.7
248,yanam,24,IN,1525167989,68,16.73,82.22,92.13,7.18
249,pamyat parizhskoy kommuny,75,RU,1525165200,62,56.1,44.5,51.8,6.71
250,rognan,20,NO,1525164600,52,67.1,15.4,44.6,18.34
251,lumphat,8,KH,1525167990,89,13.5,106.97,83.49,2.59
252,jasper,0,US,1525167300,100,33.83,-87.28,62.6,4.61
253,barcelos,0,PT,1525165200,58,41.53,-8.62,55.4,5.82
254,acapulco,75,MX,1525164900,78,16.86,-99.88,77.0,4.72
255,irbeyskoye,32,RU,1525167991,46,55.64,95.45,71.61,13.0
256,pevek,68,RU,1525167698,86,69.7,170.27,20.58,8.86
257,bambous virieux,75,MU,1525165200,65,-20.34,57.76,82.4,13.87
258,victoria,75,BN,1525165200,74,5.28,115.24,89.6,6.93
259,bathurst,36,AU,1525167993,91,-33.42,149.58,48.66,2.37
260,east london,0,ZA,1525165200,50,-33.02,27.91,77.0,8.05
261,vieste,0,IT,1525167994,94,41.88,16.18,66.3,9.19
262,komsomolskiy,56,RU,1525167994,96,67.55,63.78,25.44,15.12
263,canala,75,NC,1525167000,88,-21.52,165.96,66.2,2.24
264,broome,0,GB,1525164960,71,52.47,1.45,50.0,11.41
265,klaksvik,88,FO,1525164600,87,62.23,-6.59,44.6,25.28
266,vardo,1,US,1525166100,43,39.62,-77.74,51.8,4.7
267,yibin,64,CN,1525167996,45,28.77,104.64,81.42,7.4
268,opuwo,0,NA,1525167548,28,-18.06,13.84,79.26,7.96
269,tazmalt,75,DZ,1525165200,100,36.39,4.4,53.6,4.7
270,ozinki,36,RU,1525167997,49,51.2,49.73,72.78,17.69
271,roma,75,IT,1525164900,100,41.89,12.48,62.6,2.24
272,kumluca,0,TR,1525167998,21,36.37,30.29,73.32,2.15
273,impfondo,32,CD,1525167999,87,1.62,18.06,79.53,3.15
274,guerrero negro,92,MX,1525167567,94,27.97,-114.04,57.3,10.42
275,puerto quijarro,0,BO,1525168000,87,-19.0,-57.72,71.7,1.81
276,royan,90,FR,1525167000,76,45.62,-1.03,53.6,8.05
277,shakawe,48,BW,1525168000,33,-18.36,21.84,80.61,4.72
278,muros,20,ES,1525165200,76,42.77,-9.06,48.2,3.36
279,kodiak,1,US,1525164780,52,39.95,-94.76,69.8,18.34
280,dwarka,8,IN,1525165200,37,28.58,77.04,96.8,11.41
281,shitanjing,76,CN,1525168002,20,39.23,106.34,57.66,8.97
282,anadyr,0,RU,1525165200,85,64.73,177.51,19.4,6.71
283,russkaya polyana,68,RU,1525168003,65,53.78,73.88,42.54,14.23
284,morros,75,BR,1525165200,100,-2.87,-44.04,75.2,3.36
285,jieshi,20,CN,1525168003,80,22.82,115.83,80.16,8.97
286,boca do acre,80,BR,1525168004,99,-8.76,-67.39,74.58,2.26
287,xiongyue,92,CN,1525168004,92,40.18,122.12,58.02,4.94
288,saint george,20,GR,1525164600,64,39.45,22.34,73.4,10.29
289,candolim,0,IN,1525168005,77,15.52,73.76,91.59,13.56
290,bintulu,75,MY,1525165200,74,3.17,113.03,87.8,8.05
291,kenora,75,CA,1525166100,79,49.76,-94.48,37.4,12.75
292,hare bay,90,CA,1525166520,100,48.86,-53.99,33.8,6.93
293,whitehorse,90,CA,1525165200,60,60.72,-135.06,39.2,12.75
294,kloulklubed,75,PW,1525164840,79,7.04,134.26,84.2,4.7
295,ambon,0,FR,1525165200,54,47.55,-2.56,53.6,5.82
296,faanui,92,PF,1525167582,100,-16.48,-151.75,82.95,15.46
297,hasaki,0,JP,1525165200,68,35.73,140.83,71.6,8.05
298,isangel,0,VU,1525167582,100,-19.55,169.27,76.38,18.25
299,albemarle,1,US,1525166100,93,35.35,-80.2,51.8,3.38
300,santo antonio do ica,24,BR,1525168009,98,-3.1,-67.94,72.42,2.26
301,fukue,0,JP,1525165200,56,35.03,136.69,73.4,11.41
302,tateyama,75,JP,1525165200,77,36.66,137.31,64.4,4.7
303,tonantins,24,BR,1525168010,98,-2.86,-67.77,72.42,2.26
304,malanje,24,AO,1525168011,65,-9.54,16.35,76.11,4.94
305,chokurdakh,0,RU,1525167557,85,70.62,147.9,18.51,7.52
306,posadas,0,PY,1525165200,88,-27.37,-55.89,73.4,4.7
307,jiexiu,32,CN,1525168012,41,37.02,111.92,67.74,6.96
308,touros,80,BR,1525167669,100,-5.2,-35.46,76.29,9.75
309,brigantine,1,US,1525165200,87,39.41,-74.36,42.8,8.63
310,yashan,92,CN,1525168013,94,30.81,118.02,74.04,3.04
311,puerto madryn,24,AR,1525168013,99,-42.77,-65.04,51.0,16.24
312,babstovo,0,RU,1525167842,21,48.12,132.48,57.57,4.38
313,romitan,0,UZ,1525165200,23,39.93,64.38,73.4,20.8
314,valparaiso,1,US,1525164960,41,41.47,-87.06,60.8,5.82
315,yumen,0,CN,1525167668,24,40.29,97.04,67.2,11.1
316,haliyal,0,IN,1525168015,45,15.33,74.76,96.09,7.18
317,kem,68,UG,1525168016,99,2.68,33.77,75.03,7.96
318,road town,75,VG,1525166160,94,18.42,-64.62,77.0,17.13
319,nhulunbuy,40,AU,1525165200,69,-12.18,136.78,80.6,10.29
320,bermeo,40,ES,1525167000,71,43.42,-2.72,53.6,3.36
321,makakilo city,1,US,1525165020,82,21.35,-158.09,69.8,3.36
322,longyearbyen,75,NO,1525164600,80,78.22,15.63,30.2,1.12
323,seguin,90,US,1525165800,88,29.57,-97.96,69.8,10.29
324,baherden,20,TM,1525168019,73,38.44,57.43,65.22,7.29
325,bilibino,48,RU,1525167596,72,68.06,166.44,24.81,2.37
326,verkhoyansk,44,RU,1525168020,55,67.55,133.39,38.04,7.52
327,aklavik,75,CA,1525165200,55,68.22,-135.01,37.4,3.36
328,srednekolymsk,24,RU,1525168020,67,67.46,153.71,24.0,2.48
329,ixtapa,20,MX,1525164540,88,20.71,-105.21,69.8,2.24
330,kilindoni,36,TZ,1525168021,100,-7.91,39.67,81.6,14.79
331,chimbote,68,PE,1525168021,93,-9.08,-78.59,65.13,5.61
332,dodola,0,BF,1525168023,60,10.12,-3.28,88.98,9.98
333,paamiut,88,GL,1525168023,100,61.99,-49.67,31.38,12.33
334,zhigansk,88,RU,1525167707,64,66.77,123.37,43.53,14.45
335,egvekinot,0,RU,1525168024,87,66.32,-179.17,18.96,4.05
336,tari,8,NG,1525168024,44,12.41,4.49,96.45,13.67
337,gorontalo,68,ID,1525168025,89,0.54,123.06,78.18,1.14
338,bonito,0,BR,1525168025,81,-21.13,-56.49,68.28,1.92
339,kharitonovo,0,RU,1525168025,64,61.4,47.5,44.43,5.61
340,progreso,40,UY,1525165200,67,-34.68,-56.22,59.0,5.82
341,tasiilaq,12,GL,1525164600,53,65.61,-37.64,23.0,3.36
342,ayan,32,TR,1525168027,28,40.67,33.6,72.42,2.48
343,glushkovo,12,RU,1525168027,43,51.34,34.64,78.18,12.44
344,fortuna,20,ES,1525165200,41,38.18,-1.13,62.6,10.29
345,belaya kholunitsa,48,RU,1525167947,56,58.84,50.85,53.61,10.98
346,port hawkesbury,80,CA,1525168028,95,45.62,-61.36,38.31,3.04
347,shenxian,44,CN,1525168028,74,36.24,115.67,72.78,14.45
348,bafoulabe,8,ML,1525168029,22,13.81,-10.83,89.43,6.62
349,salalah,40,OM,1525164600,66,17.01,54.1,89.6,16.11
350,lokosovo,0,RU,1525167696,74,61.13,74.84,28.68,10.54
351,carigara,100,PH,1525168030,94,11.3,124.69,83.85,8.52
352,cap malheureux,75,MU,1525165200,65,-19.98,57.61,82.4,13.87
353,kautokeino,0,NO,1525168031,79,69.01,23.04,33.54,4.27
354,hobyo,92,SO,1525168031,77,5.35,48.53,85.65,13.33
355,port-gentil,40,GA,1525165200,79,-0.72,8.78,86.0,5.82
356,saint-pierre,40,FR,1525167000,70,48.95,4.24,50.0,11.41
357,opunake,0,NZ,1525168033,100,-39.45,173.86,57.3,1.92
358,isla vista,90,US,1525167300,81,34.41,-119.86,57.2,26.08
359,chaman,0,AF,1525168033,14,30.92,66.46,88.44,8.3
360,ikalamavony,0,MG,1525168034,51,-21.17,46.6,74.22,7.85
361,anda,92,CN,1525168034,24,46.41,125.33,60.27,7.96
362,matara,88,PE,1525167665,96,-13.74,-72.9,42.18,2.15
363,port blair,36,IN,1525167585,100,11.67,92.75,86.55,8.97
364,vila franca do campo,20,PT,1525165200,72,37.72,-25.43,62.6,9.17
365,saint-georges,80,CA,1525168036,96,46.12,-70.67,32.37,2.37
366,henties bay,0,NA,1525168036,89,-22.12,14.28,69.36,3.38
367,pacifica,90,US,1525167600,87,37.61,-122.49,51.8,5.82
368,mehamn,0,NO,1525164600,64,71.03,27.85,37.4,10.29
369,samarinda,44,ID,1525168038,91,-0.5,117.14,80.79,2.93
370,lorengau,36,PG,1525167661,100,-2.02,147.27,79.62,3.71
371,rybinsk,0,RU,1525168039,78,58.05,38.83,51.54,11.32
372,katsuura,75,JP,1525165200,56,33.93,134.5,71.6,3.36
373,nuuk,75,GL,1525164600,79,64.17,-51.74,21.2,12.75
374,margate,0,AU,1525165200,39,-43.03,147.26,62.6,10.29
375,powell,1,US,1525166220,54,40.16,-83.08,48.2,4.61
376,temir,92,KZ,1525168040,55,49.14,57.13,65.58,23.17
377,alaca,80,TR,1525168041,30,40.17,34.84,75.3,3.94
378,iquitos,90,PE,1525165200,94,-3.75,-73.25,75.2,1.12
379,gamba,92,CN,1525168041,95,28.28,88.52,29.94,3.38
380,vostok,76,RU,1525168042,28,46.45,135.83,49.74,2.26
381,qinhuangdao,92,CN,1525168042,30,39.94,119.59,67.38,7.07
382,rovaniemi,20,FI,1525166400,45,66.5,25.72,42.8,13.87
383,araouane,0,ML,1525168043,15,18.9,-3.53,81.06,12.21
384,marcovia,8,HN,1525168044,97,13.29,-87.31,78.9,4.05
385,timbo,75,US,1525167300,93,35.87,-92.32,62.6,6.17
386,tual,0,ID,1525168045,97,-5.67,132.75,85.2,10.65
387,kampot,12,KH,1525168045,79,10.62,104.18,85.2,6.62
388,myitkyina,56,MM,1525168046,80,25.38,97.4,76.2,3.71
389,zharkent,88,KZ,1525168046,48,44.17,80.0,57.84,4.38
390,strangnas,75,SE,1525166400,87,59.38,17.03,46.4,10.29
391,bonnyville,75,CA,1525165200,52,54.27,-110.74,44.6,4.7
392,maceio,75,BR,1525165200,100,-9.67,-35.74,71.6,4.7
393,kutum,0,SD,1525168048,13,14.2,24.66,95.91,11.54
394,miri,8,NG,1525168049,67,10.31,9.75,87.09,8.86
395,alyangula,64,AU,1525168049,92,-13.85,136.42,84.21,13.67
396,nouadhibou,8,MR,1525165200,59,20.93,-17.03,66.2,27.51
397,actopan,80,MX,1525168051,91,20.27,-98.94,52.44,2.93
398,hofn,24,IS,1525167637,100,64.25,-15.21,39.3,16.46
399,petropavlovsk-kamchatskiy,75,RU,1525165200,76,53.05,158.65,37.4,4.47
400,grunberg,40,DE,1525166400,57,50.59,8.96,50.0,18.34
401,puerto escondido,20,MX,1525167647,100,15.86,-97.07,84.75,5.06
402,shingu,75,JP,1525165200,82,33.72,135.99,66.2,6.93
403,nome,40,US,1525166100,93,30.04,-94.42,69.8,3.36
404,miragoane,88,HT,1525168054,100,18.44,-73.09,75.93,6.4
405,prince george,90,CA,1525165200,48,53.92,-122.75,44.6,6.93
406,cabinda,64,AO,1525168054,100,-5.56,12.19,81.6,3.6
407,samarai,88,PG,1525167645,100,-10.62,150.67,81.33,18.37
408,hope,90,CA,1525166640,87,49.38,-121.43,50.0,1.92
409,sao gotardo,20,BR,1525168056,82,-19.31,-46.05,58.2,3.71
410,coihaique,0,CL,1525165200,86,-45.58,-72.07,39.2,3.36
411,kourou,90,GF,1525167000,100,5.16,-52.64,75.2,7.29
412,misratah,0,LY,1525168057,85,32.38,15.09,70.08,6.62
413,dariba,64,IN,1525168057,20,24.95,74.13,102.84,8.41
414,kuching,75,MY,1525165200,66,1.56,110.34,89.6,8.05
415,banapur,0,IN,1525168058,79,19.78,85.18,89.07,14.23
416,turukhansk,8,RU,1525168058,100,65.8,87.96,18.42,15.9
417,taihe,56,CN,1525168059,78,26.8,114.92,82.5,7.4
418,puerto del rosario,40,ES,1525167000,63,28.5,-13.86,66.2,16.11
419,bell ville,92,AR,1525168060,99,-32.63,-62.69,58.83,10.65
420,jalingo,12,NG,1525168060,47,10.3,10.93,93.84,11.65
421,havre-saint-pierre,90,CA,1525167120,93,50.23,-63.6,35.6,8.05
422,muravlenko,0,RU,1525168061,100,63.79,74.5,20.13,7.63
423,ocos,75,GT,1525164000,94,14.51,-92.19,77.0,1.92
424,campo formoso,92,BR,1525168062,95,-10.51,-40.32,69.99,6.17
425,marsh harbour,64,BS,1525168062,100,26.54,-77.06,75.21,17.47
426,usinsk,56,RU,1525168063,92,66.0,57.56,31.56,16.24
427,puerto el triunfo,20,SV,1525164600,74,13.27,-88.55,80.6,8.05
428,vila,40,IT,1525164600,48,45.18,8.4,62.6,5.82
429,nanakuli,1,US,1525165020,88,21.39,-158.15,69.8,4.7
430,kununurra,8,AU,1525165200,29,-15.77,128.74,89.6,3.15
431,dunedin,24,NZ,1525167506,97,-45.87,170.5,44.61,9.42
432,nisia floresta,75,BR,1525165200,94,-6.09,-35.21,75.2,5.82
433,isla mujeres,40,MX,1525164000,94,21.23,-86.73,77.0,3.36
434,bud,75,NO,1525166400,46,62.91,6.91,53.6,14.99
435,meulaboh,92,ID,1525168067,100,4.14,96.13,83.04,2.15
436,rupert,1,US,1525164780,74,42.62,-113.68,39.2,9.17
437,port moresby,75,PG,1525165200,94,-9.47,147.16,77.0,8.05
438,waipawa,76,NZ,1525167622,92,-39.94,176.59,55.05,7.4
439,bloomingdale,1,US,1525167300,54,41.96,-88.08,64.4,8.05
440,aksarka,48,RU,1525167883,100,66.56,67.8,28.05,16.02
441,quixere,68,BR,1525168069,100,-5.07,-37.99,71.79,4.94
442,aparecida do taboado,80,BR,1525168069,64,-20.08,-51.1,77.01,4.61
443,sassandra,36,CI,1525168069,98,4.95,-6.09,81.6,7.18
444,salinopolis,92,BR,1525168070,100,-0.61,-47.36,74.67,7.96
445,praia,0,BR,1525165200,87,-20.25,-43.81,59.0,4.7
446,poum,20,MK,1525165200,77,41.28,20.71,60.8,5.82
447,bella union,88,CO,1525168071,97,8.5,-73.35,64.95,0.69
448,pionerskiy,88,RU,1525168071,57,61.2,62.86,45.69,5.39
449,fredericton,90,CA,1525165200,100,45.97,-66.65,39.2,3.36
450,port augusta,56,AU,1525165200,34,-32.49,137.76,68.0,5.82
451,luyang,40,CN,1525165200,88,31.88,117.26,71.6,4.47
452,muisne,88,EC,1525168073,99,0.61,-80.02,71.16,2.82
453,bongaree,0,AU,1525165200,52,-27.08,153.16,69.8,8.05
454,zwettl,44,AT,1525168074,51,48.6,15.17,59.01,6.06
455,buchanan,75,LR,1525165200,83,5.88,-10.05,82.4,4.5
456,khorramabad,40,IR,1525165200,43,33.48,48.35,71.6,4.7
457,kuytun,24,RU,1525168075,34,54.34,101.51,64.23,8.3
458,buin,0,CL,1525165200,86,-33.73,-70.74,41.0,4.7
459,nemuro,75,JP,1525165200,86,43.32,145.57,41.0,10.29
460,hamilton,75,CA,1525165200,60,43.26,-79.87,48.2,6.93
461,taoudenni,20,ML,1525168077,18,22.68,-3.98,75.66,12.44
462,saverne,75,FR,1525166400,57,48.74,7.36,51.8,6.93
463,toccoa,1,US,1525167300,93,34.58,-83.33,51.8,2.48
464,saint-andre-avellin,20,CA,1525165200,100,45.72,-75.07,37.4,4.7
465,ipira,8,BR,1525168078,95,-27.41,-51.77,58.11,2.71
466,louth,20,GB,1525166400,54,53.37,0.0,53.6,12.75
467,vysokogornyy,68,RU,1525168079,46,50.1,139.13,38.58,3.94
468,port macquarie,8,AU,1525165200,87,-31.43,152.91,60.8,5.73
469,sao joao da barra,0,BR,1525166100,93,-21.64,-41.05,66.2,6.93
470,severo-yeniseyskiy,92,RU,1525167716,98,60.37,93.04,46.41,4.61
471,mandan,75,US,1525166100,100,46.83,-100.89,39.2,12.75
472,prata,32,BR,1525168081,66,-19.31,-48.92,67.38,2.93
473,concordia,80,AR,1525168081,100,-31.4,-58.02,64.68,15.12
474,mount gambier,68,AU,1525168081,51,-37.83,140.78,60.9,6.06
475,santa lucia,40,IT,1525164900,87,39.93,9.66,53.6,11.41
476,caravelas,80,BR,1525168083,100,-17.73,-39.27,77.64,7.18
477,kainantu,100,PG,1525168083,96,-6.29,145.87,66.12,0.81
478,erzin,40,TR,1525164600,39,36.95,36.2,86.0,12.75
479,noshiro,75,JP,1525165200,82,40.21,140.05,60.8,4.7
480,srikakulam,24,IN,1525168084,97,18.29,83.89,85.2,18.92
481,huilong,88,CN,1525168085,92,28.89,110.18,73.32,2.37
482,sangar,64,RU,1525168085,48,63.92,127.47,40.74,3.6
483,bhairab bazar,40,BD,1525167000,62,24.06,90.98,89.6,8.05
484,san cosme y damian,0,PY,1525165200,88,-27.32,-56.35,73.4,4.7
485,shaoyang,56,CN,1525168086,80,27.23,111.45,80.34,3.04
486,grants,1,US,1525166100,28,35.15,-107.85,44.6,4.7
487,lander,90,US,1525166700,100,42.83,-108.73,33.8,3.36
488,ust-ishim,24,RU,1525168089,51,57.69,71.17,42.54,7.18
489,beatrice,1,US,1525166100,68,40.27,-96.75,68.0,16.11
490,del rio,90,US,1525164900,83,29.36,-100.9,71.6,18.34
491,waitati,24,NZ,1525168090,97,-45.75,170.57,44.61,9.42
492,paso de los toros,92,UY,1525168090,80,-32.81,-56.52,56.49,10.65
493,bedele,56,ET,1525168091,42,8.46,36.35,80.7,3.94
494,yar-sale,64,RU,1525167663,97,66.83,70.83,25.53,20.49
495,huambo,0,AO,1525168091,48,-12.78,15.73,74.94,5.84
496,yeniseysk,92,RU,1525168092,83,58.45,92.17,53.43,6.06
497,west point,1,US,1525166100,93,33.61,-88.65,53.6,6.29
498,simao,24,CN,1525168092,86,22.76,100.79,71.79,1.92
499,polunochnoye,48,RU,1525168093,58,60.87,60.43,48.66,8.41
500,kuala terengganu,75,MY,1525165200,78,5.33,103.14,80.6,8.05
501,touho,24,NC,1525168093,65,-20.78,165.23,69.54,8.97
502,avera,1,US,1525165800,93,33.19,-82.53,57.2,3.38
503,wuwei,0,CN,1525168094,41,37.93,102.64,56.76,9.42
504,quatre cocos,75,MU,1525165200,65,-20.21,57.76,82.4,13.87
505,hokitika,0,NZ,1525168095,100,-42.72,170.96,52.8,2.71
506,seymchan,0,RU,1525168095,80,62.93,152.39,23.64,2.59
507,jutai,92,BR,1525168096,100,-1.71,-47.89,72.24,0.58
508,chaohu,40,CN,1525165200,88,31.63,117.88,71.6,4.47
509,dafeng,64,CN,1525168096,96,33.2,120.46,67.83,8.86
510,orsha,0,BY,1525165200,38,54.51,30.43,75.2,15.66
511,svetlaya,76,RU,1525168097,63,46.54,138.33,49.2,4.38
512,yeppoon,48,AU,1525165200,64,-23.13,150.74,71.6,8.05
513,caraballeda,20,VE,1525165200,83,10.61,-66.85,75.2,11.1
514,mount isa,40,AU,1525165200,38,-20.73,139.49,77.0,5.82
515,sao francisco do sul,75,BR,1525165200,83,-26.24,-48.64,75.2,4.7
516,los llanos de aridane,20,ES,1525167000,60,28.66,-17.92,68.0,13.87
517,chifeng,80,CN,1525167643,54,42.27,118.96,52.71,7.63
518,san patricio,0,PY,1525168100,87,-26.98,-56.83,69.54,2.48
519,planeta rica,76,CO,1525168100,90,8.41,-75.58,76.02,4.83
520,kimbe,32,PG,1525168101,100,-5.56,150.15,81.33,7.18
521,jiwani,44,PK,1525168101,42,25.05,61.74,98.34,16.69
522,kaitangata,0,NZ,1525167608,87,-46.28,169.85,43.62,9.75
523,belmonte,0,PT,1525168102,87,40.36,-7.35,49.38,6.17
524,alghero,75,IT,1525164600,100,40.56,8.32,53.6,3.36
525,lucapa,20,AO,1525168103,76,-8.42,20.74,80.97,3.94
526,maningrida,32,AU,1525167594,66,-12.05,134.23,85.2,13.0
527,luba,32,PH,1525168104,75,17.32,120.7,82.86,2.93
528,nikki,12,BJ,1525168105,72,9.94,3.21,86.1,13.56
529,zhangye,0,CN,1525168105,67,38.94,100.46,60.36,4.16
530,eseka,76,CM,1525168106,90,3.65,10.77,79.98,3.49
531,kaeo,24,NZ,1525167618,92,-35.1,173.78,59.73,11.54
532,paracuru,40,BR,1525165200,94,-3.41,-39.03,77.0,8.05
533,mogadishu,40,SO,1525165200,79,2.04,45.34,86.0,13.87
534,vestmannaeyjar,75,IS,1525165200,100,63.44,-20.27,33.8,13.87
535,pokhara,76,NP,1525168107,93,28.21,83.99,60.99,1.92
536,luderitz,12,NA,1525168108,94,-26.65,15.16,67.74,2.93
537,kabanjahe,88,ID,1525168108,97,3.1,98.49,72.6,2.26
538,college,90,US,1525165080,80,64.86,-147.8,37.4,5.73
539,kieta,68,PG,1525167614,100,-6.22,155.63,76.38,2.82
540,volkhov,100,RU,1525168109,71,59.92,32.34,50.1,9.64
541,husavik,92,CA,1525168110,81,50.56,-96.99,36.96,14.79
542,corvallis,90,US,1525166100,87,44.56,-123.26,48.2,4.7
543,ahwa,0,IN,1525168111,31,20.76,73.69,100.5,13.22
544,makushino,8,RU,1525168111,57,55.21,67.25,50.28,4.27
545,tayoltita,0,MX,1525168111,45,24.11,-105.93,66.84,2.37
546,gao,0,ML,1525168112,15,16.28,-0.04,95.01,11.88
547,channel-port aux basques,88,CA,1525168112,92,47.57,-59.14,35.34,18.48
548,buraydah,40,SA,1525165200,34,26.33,43.97,93.2,16.11
549,cap-aux-meules,90,CA,1525166280,100,47.38,-61.86,35.6,3.36
550,sandwick,40,GB,1525164600,75,54.57,-2.89,46.4,17.22
551,coahuayana,88,MX,1525167717,75,18.62,-100.35,63.33,2.04
552,mookane,0,BW,1525168115,64,-23.68,26.66,68.73,11.21
553,houma,8,CN,1525167655,45,35.63,111.36,72.69,8.86
554,harnosand,90,SE,1525166400,70,62.63,17.94,42.8,14.99
555,manokwari,56,ID,1525167683,97,-0.87,134.08,83.67,2.93
556,guiratinga,0,BR,1525168116,79,-16.35,-53.76,70.71,3.38
557,hami,0,CN,1525167702,18,42.84,93.51,81.51,5.17
558,nadym,8,RU,1525168116,91,65.53,72.51,23.46,11.65
559,pathein,56,MM,1525168117,100,16.78,94.73,79.26,4.38
560,sorland,20,NO,1525162800,56,67.67,12.69,42.8,19.46
561,cianorte,0,BR,1525165200,72,-23.66,-52.61,68.0,2.24
562,oussouye,0,SN,1525165200,65,12.49,-16.54,77.0,6.93
